[
    {
        "fip": "1001",
        "state": "AL",
        "name": "Autauga County",
        "lat": 32.532237,
        "long": -86.64644
    },
    {
        "fip": "1003",
        "state": "AL",
        "name": "Baldwin County",
        "lat": 30.659218,
        "long": -87.746067
    },
    {
        "fip": "1005",
        "state": "AL",
        "name": "Barbour County",
        "lat": 31.870253,
        "long": -85.405104
    },
    {
        "fip": "1007",
        "state": "AL",
        "name": "Bibb County",
        "lat": 33.015893,
        "long": -87.127148
    },
    {
        "fip": "1009",
        "state": "AL",
        "name": "Blount County",
        "lat": 33.977358,
        "long": -86.56644
    },
    {
        "fip": "1011",
        "state": "AL",
        "name": "Bullock County",
        "lat": 32.101759,
        "long": -85.717261
    },
    {
        "fip": "1013",
        "state": "AL",
        "name": "Butler County",
        "lat": 31.751667,
        "long": -86.681969
    },
    {
        "fip": "1015",
        "state": "AL",
        "name": "Calhoun County",
        "lat": 33.770516,
        "long": -85.827909
    },
    {
        "fip": "1017",
        "state": "AL",
        "name": "Chambers County",
        "lat": 32.915504,
        "long": -85.394032
    },
    {
        "fip": "1019",
        "state": "AL",
        "name": "Cherokee County",
        "lat": 34.069515,
        "long": -85.654242
    },
    {
        "fip": "1021",
        "state": "AL",
        "name": "Chilton County",
        "lat": 32.854051,
        "long": -86.726607
    },
    {
        "fip": "1023",
        "state": "AL",
        "name": "Choctaw County",
        "lat": 31.990954,
        "long": -88.248889
    },
    {
        "fip": "1025",
        "state": "AL",
        "name": "Clarke County",
        "lat": 31.685521,
        "long": -87.818624
    },
    {
        "fip": "1027",
        "state": "AL",
        "name": "Clay County",
        "lat": 33.2704,
        "long": -85.863525
    },
    {
        "fip": "1029",
        "state": "AL",
        "name": "Cleburne County",
        "lat": 33.671964,
        "long": -85.516126
    },
    {
        "fip": "1031",
        "state": "AL",
        "name": "Coffee County",
        "lat": 31.402258,
        "long": -85.989602
    },
    {
        "fip": "1033",
        "state": "AL",
        "name": "Colbert County",
        "lat": 34.703112,
        "long": -87.801457
    },
    {
        "fip": "1035",
        "state": "AL",
        "name": "Conecuh County",
        "lat": 31.430926,
        "long": -86.988722
    },
    {
        "fip": "1037",
        "state": "AL",
        "name": "Coosa County",
        "lat": 32.931445,
        "long": -86.243482
    },
    {
        "fip": "1039",
        "state": "AL",
        "name": "Covington County",
        "lat": 31.243987,
        "long": -86.448721
    },
    {
        "fip": "1041",
        "state": "AL",
        "name": "Crenshaw County",
        "lat": 31.732826,
        "long": -86.319222
    },
    {
        "fip": "1043",
        "state": "AL",
        "name": "Cullman County",
        "lat": 34.131923,
        "long": -86.869267
    },
    {
        "fip": "1045",
        "state": "AL",
        "name": "Dale County",
        "lat": 31.430654,
        "long": -85.609476
    },
    {
        "fip": "1047",
        "state": "AL",
        "name": "Dallas County",
        "lat": 32.33354,
        "long": -87.114356
    },
    {
        "fip": "1049",
        "state": "AL",
        "name": "DeKalb County",
        "lat": 34.460929,
        "long": -85.803992
    },
    {
        "fip": "1051",
        "state": "AL",
        "name": "Elmore County",
        "lat": 32.597229,
        "long": -86.142735
    },
    {
        "fip": "1053",
        "state": "AL",
        "name": "Escambia County",
        "lat": 31.122287,
        "long": -87.16841
    },
    {
        "fip": "1055",
        "state": "AL",
        "name": "Etowah County",
        "lat": 34.047641,
        "long": -86.034263
    },
    {
        "fip": "1057",
        "state": "AL",
        "name": "Fayette County",
        "lat": 33.716157,
        "long": -87.764292
    },
    {
        "fip": "1059",
        "state": "AL",
        "name": "Franklin County",
        "lat": 34.441989,
        "long": -87.842814
    },
    {
        "fip": "1061",
        "state": "AL",
        "name": "Geneva County",
        "lat": 31.092382,
        "long": -85.821022
    },
    {
        "fip": "1063",
        "state": "AL",
        "name": "Greene County",
        "lat": 32.844497,
        "long": -87.9642
    },
    {
        "fip": "1065",
        "state": "AL",
        "name": "Hale County",
        "lat": 32.752796,
        "long": -87.623061
    },
    {
        "fip": "1067",
        "state": "AL",
        "name": "Henry County",
        "lat": 31.516978,
        "long": -85.239971
    },
    {
        "fip": "1069",
        "state": "AL",
        "name": "Houston County",
        "lat": 31.158183,
        "long": -85.296411
    },
    {
        "fip": "1071",
        "state": "AL",
        "name": "Jackson County",
        "lat": 34.764114,
        "long": -85.980056
    },
    {
        "fip": "1073",
        "state": "AL",
        "name": "Jefferson County",
        "lat": 33.553444,
        "long": -86.896536
    },
    {
        "fip": "1075",
        "state": "AL",
        "name": "Lamar County",
        "lat": 33.787085,
        "long": -88.087431
    },
    {
        "fip": "1077",
        "state": "AL",
        "name": "Lauderdale County",
        "lat": 34.904122,
        "long": -87.650997
    },
    {
        "fip": "1079",
        "state": "AL",
        "name": "Lawrence County",
        "lat": 34.529776,
        "long": -87.321865
    },
    {
        "fip": "1081",
        "state": "AL",
        "name": "Lee County",
        "lat": 32.604064,
        "long": -85.353048
    },
    {
        "fip": "1083",
        "state": "AL",
        "name": "Limestone County",
        "lat": 34.810239,
        "long": -86.981399
    },
    {
        "fip": "1085",
        "state": "AL",
        "name": "Lowndes County",
        "lat": 32.147888,
        "long": -86.650586
    },
    {
        "fip": "1087",
        "state": "AL",
        "name": "Macon County",
        "lat": 32.387027,
        "long": -85.692887
    },
    {
        "fip": "1089",
        "state": "AL",
        "name": "Madison County",
        "lat": 34.764238,
        "long": -86.55108
    },
    {
        "fip": "1091",
        "state": "AL",
        "name": "Marengo County",
        "lat": 32.247591,
        "long": -87.791091
    },
    {
        "fip": "1093",
        "state": "AL",
        "name": "Marion County",
        "lat": 34.138219,
        "long": -87.881551
    },
    {
        "fip": "1095",
        "state": "AL",
        "name": "Marshall County",
        "lat": 34.309564,
        "long": -86.321668
    },
    {
        "fip": "1097",
        "state": "AL",
        "name": "Mobile County",
        "lat": 30.684572,
        "long": -88.196568
    },
    {
        "fip": "1099",
        "state": "AL",
        "name": "Monroe County",
        "lat": 31.580332,
        "long": -87.383266
    },
    {
        "fip": "1101",
        "state": "AL",
        "name": "Montgomery County",
        "lat": 32.202881,
        "long": -86.204461
    },
    {
        "fip": "1103",
        "state": "AL",
        "name": "Morgan County",
        "lat": 34.454484,
        "long": -86.846402
    },
    {
        "fip": "1105",
        "state": "AL",
        "name": "Perry County",
        "lat": 32.639005,
        "long": -87.293827
    },
    {
        "fip": "1107",
        "state": "AL",
        "name": "Pickens County",
        "lat": 33.296793,
        "long": -88.096863
    },
    {
        "fip": "1109",
        "state": "AL",
        "name": "Pike County",
        "lat": 31.798651,
        "long": -85.941604
    },
    {
        "fip": "1111",
        "state": "AL",
        "name": "Randolph County",
        "lat": 33.296475,
        "long": -85.464068
    },
    {
        "fip": "1113",
        "state": "AL",
        "name": "Russell County",
        "lat": 32.289811,
        "long": -85.18698
    },
    {
        "fip": "1115",
        "state": "AL",
        "name": "St. Clair County",
        "lat": 33.712963,
        "long": -86.315663
    },
    {
        "fip": "1117",
        "state": "AL",
        "name": "Shelby County",
        "lat": 33.263043,
        "long": -86.678089
    },
    {
        "fip": "1119",
        "state": "AL",
        "name": "Sumter County",
        "lat": 32.597481,
        "long": -88.200057
    },
    {
        "fip": "1121",
        "state": "AL",
        "name": "Talladega County",
        "lat": 33.369314,
        "long": -86.17593
    },
    {
        "fip": "1123",
        "state": "AL",
        "name": "Tallapoosa County",
        "lat": 32.863308,
        "long": -85.799618
    },
    {
        "fip": "1125",
        "state": "AL",
        "name": "Tuscaloosa County",
        "lat": 33.29022,
        "long": -87.522783
    },
    {
        "fip": "1127",
        "state": "AL",
        "name": "Walker County",
        "lat": 33.791558,
        "long": -87.301094
    },
    {
        "fip": "1129",
        "state": "AL",
        "name": "Washington County",
        "lat": 31.405217,
        "long": -88.197564
    },
    {
        "fip": "1131",
        "state": "AL",
        "name": "Wilcox County",
        "lat": 31.990082,
        "long": -87.304935
    },
    {
        "fip": "1133",
        "state": "AL",
        "name": "Winston County",
        "lat": 34.154566,
        "long": -87.365346
    },
    {
        "fip": "2013",
        "state": "AK",
        "name": "Aleutians East Borough",
        "lat": 55.245044,
        "long": -161.997477
    },
    {
        "fip": "2016",
        "state": "AK",
        "name": "Aleutians West Census Area",
        "lat": 51.948964,
        "long": 179.621188
    },
    {
        "fip": "2020",
        "state": "AK",
        "name": "Anchorage Municipality",
        "lat": 61.17425,
        "long": -149.284329
    },
    {
        "fip": "2050",
        "state": "AK",
        "name": "Bethel Census Area",
        "lat": 60.929141,
        "long": -160.152625
    },
    {
        "fip": "2060",
        "state": "AK",
        "name": "Bristol Bay Borough",
        "lat": 58.741647,
        "long": -156.966909
    },
    {
        "fip": "2068",
        "state": "AK",
        "name": "Denali Borough",
        "lat": 63.682039,
        "long": -150.027016
    },
    {
        "fip": "2070",
        "state": "AK",
        "name": "Dillingham Census Area",
        "lat": 59.543326,
        "long": -158.267123
    },
    {
        "fip": "2090",
        "state": "AK",
        "name": "Fairbanks North Star Borough",
        "lat": 64.676044,
        "long": -146.548159
    },
    {
        "fip": "2100",
        "state": "AK",
        "name": "Haines Borough",
        "lat": 59.098404,
        "long": -135.575791
    },
    {
        "fip": "2105",
        "state": "AK",
        "name": "Hoonah-Angoon Census Area",
        "lat": 58.253462,
        "long": -136.320731
    },
    {
        "fip": "2110",
        "state": "AK",
        "name": "Juneau City and Borough",
        "lat": 58.37291,
        "long": -134.178445
    },
    {
        "fip": "2122",
        "state": "AK",
        "name": "Kenai Peninsula Borough",
        "lat": 60.360766,
        "long": -152.05264
    },
    {
        "fip": "2130",
        "state": "AK",
        "name": "Ketchikan Gateway Borough",
        "lat": 55.449938,
        "long": -131.106685
    },
    {
        "fip": "2150",
        "state": "AK",
        "name": "Kodiak Island Borough",
        "lat": 57.7044,
        "long": -153.918372
    },
    {
        "fip": "2158",
        "state": "AK",
        "name": "Kusilvak Census Area",
        "lat": 62.283588,
        "long": -163.190171
    },
    {
        "fip": "2164",
        "state": "AK",
        "name": "Lake and Peninsula Borough",
        "lat": 58.108507,
        "long": -156.413413
    },
    {
        "fip": "2170",
        "state": "AK",
        "name": "Matanuska-Susitna Borough",
        "lat": 62.279094,
        "long": -149.619094
    },
    {
        "fip": "2180",
        "state": "AK",
        "name": "Nome Census Area",
        "lat": 64.783686,
        "long": -164.188912
    },
    {
        "fip": "2185",
        "state": "AK",
        "name": "North Slope Borough",
        "lat": 69.449343,
        "long": -153.47283
    },
    {
        "fip": "2188",
        "state": "AK",
        "name": "Northwest Arctic Borough",
        "lat": 67.005066,
        "long": -160.021086
    },
    {
        "fip": "2195",
        "state": "AK",
        "name": "Petersburg Borough",
        "lat": 57.112458,
        "long": -133.008598
    },
    {
        "fip": "2198",
        "state": "AK",
        "name": "Prince of Wales-Hyder Census Area",
        "lat": 55.682773,
        "long": -133.162389
    },
    {
        "fip": "2220",
        "state": "AK",
        "name": "Sitka City and Borough",
        "lat": 57.193204,
        "long": -135.367396
    },
    {
        "fip": "2230",
        "state": "AK",
        "name": "Skagway Municipality",
        "lat": 59.560379,
        "long": -135.338279
    },
    {
        "fip": "2240",
        "state": "AK",
        "name": "Southeast Fairbanks Census Area",
        "lat": 63.864997,
        "long": -143.218628
    },
    {
        "fip": "2261",
        "state": "AK",
        "name": "Valdez-Cordova Census Area",
        "lat": 61.349843,
        "long": -145.023109
    },
    {
        "fip": "2275",
        "state": "AK",
        "name": "Wrangell City and Borough",
        "lat": 56.317416,
        "long": -132.343978
    },
    {
        "fip": "2282",
        "state": "AK",
        "name": "Yakutat City and Borough",
        "lat": 60.017453,
        "long": -140.416942
    },
    {
        "fip": "2290",
        "state": "AK",
        "name": "Yukon-Koyukuk Census Area",
        "lat": 65.375727,
        "long": -151.57785
    },
    {
        "fip": "4001",
        "state": "AZ",
        "name": "Apache County",
        "lat": 35.385084,
        "long": -109.490172
    },
    {
        "fip": "4003",
        "state": "AZ",
        "name": "Cochise County",
        "lat": 31.840129,
        "long": -109.775163
    },
    {
        "fip": "4005",
        "state": "AZ",
        "name": "Coconino County",
        "lat": 35.829692,
        "long": -111.773728
    },
    {
        "fip": "4007",
        "state": "AZ",
        "name": "Gila County",
        "lat": 33.789618,
        "long": -110.81187
    },
    {
        "fip": "4009",
        "state": "AZ",
        "name": "Graham County",
        "lat": 32.931828,
        "long": -109.87831
    },
    {
        "fip": "4011",
        "state": "AZ",
        "name": "Greenlee County",
        "lat": 33.238872,
        "long": -109.242323
    },
    {
        "fip": "4012",
        "state": "AZ",
        "name": "La Paz County",
        "lat": 33.72761,
        "long": -114.038806
    },
    {
        "fip": "4013",
        "state": "AZ",
        "name": "Maricopa County",
        "lat": 33.345176,
        "long": -112.49893
    },
    {
        "fip": "4015",
        "state": "AZ",
        "name": "Mohave County",
        "lat": 35.717705,
        "long": -113.749689
    },
    {
        "fip": "4017",
        "state": "AZ",
        "name": "Navajo County",
        "lat": 35.390785,
        "long": -110.321025
    },
    {
        "fip": "4019",
        "state": "AZ",
        "name": "Pima County",
        "lat": 32.128043,
        "long": -111.783657
    },
    {
        "fip": "4021",
        "state": "AZ",
        "name": "Pinal County",
        "lat": 32.918521,
        "long": -111.36634
    },
    {
        "fip": "4023",
        "state": "AZ",
        "name": "Santa Cruz County",
        "lat": 31.525733,
        "long": -110.845228
    },
    {
        "fip": "4025",
        "state": "AZ",
        "name": "Yavapai County",
        "lat": 34.631071,
        "long": -112.577225
    },
    {
        "fip": "4027",
        "state": "AZ",
        "name": "Yuma County",
        "lat": 32.773942,
        "long": -113.910905
    },
    {
        "fip": "5001",
        "state": "AR",
        "name": "Arkansas County",
        "lat": 34.28957,
        "long": -91.376547
    },
    {
        "fip": "5003",
        "state": "AR",
        "name": "Ashley County",
        "lat": 33.190835,
        "long": -91.772267
    },
    {
        "fip": "5005",
        "state": "AR",
        "name": "Baxter County",
        "lat": 36.280268,
        "long": -92.329949
    },
    {
        "fip": "5007",
        "state": "AR",
        "name": "Benton County",
        "lat": 36.337819,
        "long": -94.256298
    },
    {
        "fip": "5009",
        "state": "AR",
        "name": "Boone County",
        "lat": 36.304299,
        "long": -93.079236
    },
    {
        "fip": "5011",
        "state": "AR",
        "name": "Bradley County",
        "lat": 33.466549,
        "long": -92.169156
    },
    {
        "fip": "5013",
        "state": "AR",
        "name": "Calhoun County",
        "lat": 33.56046,
        "long": -92.513879
    },
    {
        "fip": "5015",
        "state": "AR",
        "name": "Carroll County",
        "lat": 36.33737,
        "long": -93.540972
    },
    {
        "fip": "5017",
        "state": "AR",
        "name": "Chicot County",
        "lat": 33.267139,
        "long": -91.297158
    },
    {
        "fip": "5019",
        "state": "AR",
        "name": "Clark County",
        "lat": 34.053316,
        "long": -93.176208
    },
    {
        "fip": "5021",
        "state": "AR",
        "name": "Clay County",
        "lat": 36.367302,
        "long": -90.418704
    },
    {
        "fip": "5023",
        "state": "AR",
        "name": "Cleburne County",
        "lat": 35.566315,
        "long": -92.05995
    },
    {
        "fip": "5025",
        "state": "AR",
        "name": "Cleveland County",
        "lat": 33.893201,
        "long": -92.188714
    },
    {
        "fip": "5027",
        "state": "AR",
        "name": "Columbia County",
        "lat": 33.223038,
        "long": -93.232843
    },
    {
        "fip": "5029",
        "state": "AR",
        "name": "Conway County",
        "lat": 35.265702,
        "long": -92.689248
    },
    {
        "fip": "5031",
        "state": "AR",
        "name": "Craighead County",
        "lat": 35.827729,
        "long": -90.631421
    },
    {
        "fip": "5033",
        "state": "AR",
        "name": "Crawford County",
        "lat": 35.583011,
        "long": -94.236219
    },
    {
        "fip": "5035",
        "state": "AR",
        "name": "Crittenden County",
        "lat": 35.211879,
        "long": -90.315332
    },
    {
        "fip": "5037",
        "state": "AR",
        "name": "Cross County",
        "lat": 35.285692,
        "long": -90.763984
    },
    {
        "fip": "5039",
        "state": "AR",
        "name": "Dallas County",
        "lat": 33.967823,
        "long": -92.653999
    },
    {
        "fip": "5041",
        "state": "AR",
        "name": "Desha County",
        "lat": 33.828752,
        "long": -91.244103
    },
    {
        "fip": "5043",
        "state": "AR",
        "name": "Drew County",
        "lat": 33.587242,
        "long": -91.722778
    },
    {
        "fip": "5045",
        "state": "AR",
        "name": "Faulkner County",
        "lat": 35.146548,
        "long": -92.336928
    },
    {
        "fip": "5047",
        "state": "AR",
        "name": "Franklin County",
        "lat": 35.508558,
        "long": -93.887665
    },
    {
        "fip": "5049",
        "state": "AR",
        "name": "Fulton County",
        "lat": 36.383619,
        "long": -91.819664
    },
    {
        "fip": "5051",
        "state": "AR",
        "name": "Garland County",
        "lat": 34.578852,
        "long": -93.146932
    },
    {
        "fip": "5053",
        "state": "AR",
        "name": "Grant County",
        "lat": 34.285568,
        "long": -92.422979
    },
    {
        "fip": "5055",
        "state": "AR",
        "name": "Greene County",
        "lat": 36.120607,
        "long": -90.566346
    },
    {
        "fip": "5057",
        "state": "AR",
        "name": "Hempstead County",
        "lat": 33.735953,
        "long": -93.664355
    },
    {
        "fip": "5059",
        "state": "AR",
        "name": "Hot Spring County",
        "lat": 34.315177,
        "long": -92.944147
    },
    {
        "fip": "5061",
        "state": "AR",
        "name": "Howard County",
        "lat": 34.083064,
        "long": -93.990931
    },
    {
        "fip": "5063",
        "state": "AR",
        "name": "Independence County",
        "lat": 35.737499,
        "long": -91.559942
    },
    {
        "fip": "5065",
        "state": "AR",
        "name": "Izard County",
        "lat": 36.094879,
        "long": -91.913625
    },
    {
        "fip": "5067",
        "state": "AR",
        "name": "Jackson County",
        "lat": 35.596467,
        "long": -91.223205
    },
    {
        "fip": "5069",
        "state": "AR",
        "name": "Jefferson County",
        "lat": 34.277239,
        "long": -91.929673
    },
    {
        "fip": "5071",
        "state": "AR",
        "name": "Johnson County",
        "lat": 35.573359,
        "long": -93.466322
    },
    {
        "fip": "5073",
        "state": "AR",
        "name": "Lafayette County",
        "lat": 33.240629,
        "long": -93.611514
    },
    {
        "fip": "5075",
        "state": "AR",
        "name": "Lawrence County",
        "lat": 36.041098,
        "long": -91.101153
    },
    {
        "fip": "5077",
        "state": "AR",
        "name": "Lee County",
        "lat": 34.779505,
        "long": -90.779717
    },
    {
        "fip": "5079",
        "state": "AR",
        "name": "Lincoln County",
        "lat": 33.957675,
        "long": -91.727626
    },
    {
        "fip": "5081",
        "state": "AR",
        "name": "Little River County",
        "lat": 33.699497,
        "long": -94.229774
    },
    {
        "fip": "5083",
        "state": "AR",
        "name": "Logan County",
        "lat": 35.218654,
        "long": -93.72091
    },
    {
        "fip": "5085",
        "state": "AR",
        "name": "Lonoke County",
        "lat": 34.755114,
        "long": -91.894132
    },
    {
        "fip": "5087",
        "state": "AR",
        "name": "Madison County",
        "lat": 36.012545,
        "long": -93.724053
    },
    {
        "fip": "5089",
        "state": "AR",
        "name": "Marion County",
        "lat": 36.266664,
        "long": -92.678577
    },
    {
        "fip": "5091",
        "state": "AR",
        "name": "Miller County",
        "lat": 33.305505,
        "long": -93.901502
    },
    {
        "fip": "5093",
        "state": "AR",
        "name": "Mississippi County",
        "lat": 35.766944,
        "long": -90.052207
    },
    {
        "fip": "5095",
        "state": "AR",
        "name": "Monroe County",
        "lat": 34.679512,
        "long": -91.20331
    },
    {
        "fip": "5097",
        "state": "AR",
        "name": "Montgomery County",
        "lat": 34.545656,
        "long": -93.664153
    },
    {
        "fip": "5099",
        "state": "AR",
        "name": "Nevada County",
        "lat": 33.666699,
        "long": -93.305072
    },
    {
        "fip": "5101",
        "state": "AR",
        "name": "Newton County",
        "lat": 35.910742,
        "long": -93.215898
    },
    {
        "fip": "5103",
        "state": "AR",
        "name": "Ouachita County",
        "lat": 33.591168,
        "long": -92.878413
    },
    {
        "fip": "5105",
        "state": "AR",
        "name": "Perry County",
        "lat": 34.946363,
        "long": -92.926877
    },
    {
        "fip": "5107",
        "state": "AR",
        "name": "Phillips County",
        "lat": 34.423687,
        "long": -90.855593
    },
    {
        "fip": "5109",
        "state": "AR",
        "name": "Pike County",
        "lat": 34.158191,
        "long": -93.658659
    },
    {
        "fip": "5111",
        "state": "AR",
        "name": "Poinsett County",
        "lat": 35.56887,
        "long": -90.681104
    },
    {
        "fip": "5113",
        "state": "AR",
        "name": "Polk County",
        "lat": 34.490915,
        "long": -94.230884
    },
    {
        "fip": "5115",
        "state": "AR",
        "name": "Pope County",
        "lat": 35.456557,
        "long": -93.026818
    },
    {
        "fip": "5117",
        "state": "AR",
        "name": "Prairie County",
        "lat": 34.831116,
        "long": -91.55362
    },
    {
        "fip": "5119",
        "state": "AR",
        "name": "Pulaski County",
        "lat": 34.770311,
        "long": -92.312996
    },
    {
        "fip": "5121",
        "state": "AR",
        "name": "Randolph County",
        "lat": 36.341298,
        "long": -91.028441
    },
    {
        "fip": "5123",
        "state": "AR",
        "name": "St. Francis County",
        "lat": 35.022838,
        "long": -90.751505
    },
    {
        "fip": "5125",
        "state": "AR",
        "name": "Saline County",
        "lat": 34.648525,
        "long": -92.674463
    },
    {
        "fip": "5127",
        "state": "AR",
        "name": "Scott County",
        "lat": 34.858869,
        "long": -94.063641
    },
    {
        "fip": "5129",
        "state": "AR",
        "name": "Searcy County",
        "lat": 35.896387,
        "long": -92.695888
    },
    {
        "fip": "5131",
        "state": "AR",
        "name": "Sebastian County",
        "lat": 35.196981,
        "long": -94.274989
    },
    {
        "fip": "5133",
        "state": "AR",
        "name": "Sevier County",
        "lat": 33.994877,
        "long": -94.243279
    },
    {
        "fip": "5135",
        "state": "AR",
        "name": "Sharp County",
        "lat": 36.173399,
        "long": -91.471069
    },
    {
        "fip": "5137",
        "state": "AR",
        "name": "Stone County",
        "lat": 35.857001,
        "long": -92.140482
    },
    {
        "fip": "5139",
        "state": "AR",
        "name": "Union County",
        "lat": 33.168219,
        "long": -92.598145
    },
    {
        "fip": "5141",
        "state": "AR",
        "name": "Van Buren County",
        "lat": 35.582953,
        "long": -92.515976
    },
    {
        "fip": "5143",
        "state": "AR",
        "name": "Washington County",
        "lat": 35.978001,
        "long": -94.217269
    },
    {
        "fip": "5145",
        "state": "AR",
        "name": "White County",
        "lat": 35.255118,
        "long": -91.753034
    },
    {
        "fip": "5147",
        "state": "AR",
        "name": "Woodruff County",
        "lat": 35.192777,
        "long": -91.244535
    },
    {
        "fip": "5149",
        "state": "AR",
        "name": "Yell County",
        "lat": 34.997713,
        "long": -93.408303
    },
    {
        "fip": "6001",
        "state": "CA",
        "name": "Alameda County",
        "lat": 37.647139,
        "long": -121.912488
    },
    {
        "fip": "6003",
        "state": "CA",
        "name": "Alpine County",
        "lat": 38.621783,
        "long": -119.798352
    },
    {
        "fip": "6005",
        "state": "CA",
        "name": "Amador County",
        "lat": 38.44355,
        "long": -120.653856
    },
    {
        "fip": "6007",
        "state": "CA",
        "name": "Butte County",
        "lat": 39.665959,
        "long": -121.601919
    },
    {
        "fip": "6009",
        "state": "CA",
        "name": "Calaveras County",
        "lat": 38.1839,
        "long": -120.561441
    },
    {
        "fip": "6011",
        "state": "CA",
        "name": "Colusa County",
        "lat": 39.177739,
        "long": -122.237563
    },
    {
        "fip": "6013",
        "state": "CA",
        "name": "Contra Costa County",
        "lat": 37.919479,
        "long": -121.951543
    },
    {
        "fip": "6015",
        "state": "CA",
        "name": "Del Norte County",
        "lat": 41.763958,
        "long": -124.003614
    },
    {
        "fip": "6017",
        "state": "CA",
        "name": "El Dorado County",
        "lat": 38.785612,
        "long": -120.534225
    },
    {
        "fip": "6019",
        "state": "CA",
        "name": "Fresno County",
        "lat": 36.761006,
        "long": -119.655019
    },
    {
        "fip": "6021",
        "state": "CA",
        "name": "Glenn County",
        "lat": 39.602546,
        "long": -122.4017
    },
    {
        "fip": "6023",
        "state": "CA",
        "name": "Humboldt County",
        "lat": 40.706655,
        "long": -123.926176
    },
    {
        "fip": "6025",
        "state": "CA",
        "name": "Imperial County",
        "lat": 33.040814,
        "long": -115.3554
    },
    {
        "fip": "6027",
        "state": "CA",
        "name": "Inyo County",
        "lat": 36.561977,
        "long": -117.403927
    },
    {
        "fip": "6029",
        "state": "CA",
        "name": "Kern County",
        "lat": 35.346629,
        "long": -118.729506
    },
    {
        "fip": "6031",
        "state": "CA",
        "name": "Kings County",
        "lat": 36.072478,
        "long": -119.81553
    },
    {
        "fip": "6033",
        "state": "CA",
        "name": "Lake County",
        "lat": 39.094802,
        "long": -122.746757
    },
    {
        "fip": "6035",
        "state": "CA",
        "name": "Lassen County",
        "lat": 40.721086,
        "long": -120.629952
    },
    {
        "fip": "6037",
        "state": "CA",
        "name": "Los Angeles County",
        "lat": 34.196398,
        "long": -118.261862
    },
    {
        "fip": "6039",
        "state": "CA",
        "name": "Madera County",
        "lat": 37.209821,
        "long": -119.749802
    },
    {
        "fip": "6041",
        "state": "CA",
        "name": "Marin County",
        "lat": 38.051817,
        "long": -122.745974
    },
    {
        "fip": "6043",
        "state": "CA",
        "name": "Mariposa County",
        "lat": 37.57003,
        "long": -119.912861
    },
    {
        "fip": "6045",
        "state": "CA",
        "name": "Mendocino County",
        "lat": 39.432388,
        "long": -123.442881
    },
    {
        "fip": "6047",
        "state": "CA",
        "name": "Merced County",
        "lat": 37.194806,
        "long": -120.722802
    },
    {
        "fip": "6049",
        "state": "CA",
        "name": "Modoc County",
        "lat": 41.592918,
        "long": -120.71837
    },
    {
        "fip": "6051",
        "state": "CA",
        "name": "Mono County",
        "lat": 37.915836,
        "long": -118.875167
    },
    {
        "fip": "6053",
        "state": "CA",
        "name": "Monterey County",
        "lat": 36.240107,
        "long": -121.315572
    },
    {
        "fip": "6055",
        "state": "CA",
        "name": "Napa County",
        "lat": 38.5071,
        "long": -122.325904
    },
    {
        "fip": "6057",
        "state": "CA",
        "name": "Nevada County",
        "lat": 39.297508,
        "long": -120.771343
    },
    {
        "fip": "6059",
        "state": "CA",
        "name": "Orange County",
        "lat": 33.675687,
        "long": -117.777207
    },
    {
        "fip": "6061",
        "state": "CA",
        "name": "Placer County",
        "lat": 39.062032,
        "long": -120.722718
    },
    {
        "fip": "6063",
        "state": "CA",
        "name": "Plumas County",
        "lat": 39.992295,
        "long": -120.824371
    },
    {
        "fip": "6065",
        "state": "CA",
        "name": "Riverside County",
        "lat": 33.729828,
        "long": -116.002239
    },
    {
        "fip": "6067",
        "state": "CA",
        "name": "Sacramento County",
        "lat": 38.450016,
        "long": -121.340441
    },
    {
        "fip": "6069",
        "state": "CA",
        "name": "San Benito County",
        "lat": 36.611651,
        "long": -121.085811
    },
    {
        "fip": "6071",
        "state": "CA",
        "name": "San Bernardino County",
        "lat": 34.85722,
        "long": -116.181197
    },
    {
        "fip": "6073",
        "state": "CA",
        "name": "San Diego County",
        "lat": 33.023604,
        "long": -116.776117
    },
    {
        "fip": "6075",
        "state": "CA",
        "name": "San Francisco County",
        "lat": 37.727239,
        "long": -123.032229
    },
    {
        "fip": "6077",
        "state": "CA",
        "name": "San Joaquin County",
        "lat": 37.934982,
        "long": -121.272244
    },
    {
        "fip": "6079",
        "state": "CA",
        "name": "San Luis Obispo County",
        "lat": 35.385224,
        "long": -120.447544
    },
    {
        "fip": "6081",
        "state": "CA",
        "name": "San Mateo County",
        "lat": 37.414672,
        "long": -122.371546
    },
    {
        "fip": "6083",
        "state": "CA",
        "name": "Santa Barbara County",
        "lat": 34.537057,
        "long": -120.039973
    },
    {
        "fip": "6085",
        "state": "CA",
        "name": "Santa Clara County",
        "lat": 37.220695,
        "long": -121.69051
    },
    {
        "fip": "6087",
        "state": "CA",
        "name": "Santa Cruz County",
        "lat": 37.012488,
        "long": -122.007205
    },
    {
        "fip": "6089",
        "state": "CA",
        "name": "Shasta County",
        "lat": 40.760514,
        "long": -122.043556
    },
    {
        "fip": "6091",
        "state": "CA",
        "name": "Sierra County",
        "lat": 39.576925,
        "long": -120.521993
    },
    {
        "fip": "6093",
        "state": "CA",
        "name": "Siskiyou County",
        "lat": 41.587986,
        "long": -122.533287
    },
    {
        "fip": "6095",
        "state": "CA",
        "name": "Solano County",
        "lat": 38.267226,
        "long": -121.939594
    },
    {
        "fip": "6097",
        "state": "CA",
        "name": "Sonoma County",
        "lat": 38.525182,
        "long": -122.92611
    },
    {
        "fip": "6099",
        "state": "CA",
        "name": "Stanislaus County",
        "lat": 37.562316,
        "long": -121.002831
    },
    {
        "fip": "6101",
        "state": "CA",
        "name": "Sutter County",
        "lat": 39.03619,
        "long": -121.70394
    },
    {
        "fip": "6103",
        "state": "CA",
        "name": "Tehama County",
        "lat": 40.126157,
        "long": -122.232274
    },
    {
        "fip": "6105",
        "state": "CA",
        "name": "Trinity County",
        "lat": 40.647803,
        "long": -123.114476
    },
    {
        "fip": "6107",
        "state": "CA",
        "name": "Tulare County",
        "lat": 36.228834,
        "long": -118.781055
    },
    {
        "fip": "6109",
        "state": "CA",
        "name": "Tuolumne County",
        "lat": 38.021434,
        "long": -119.964733
    },
    {
        "fip": "6111",
        "state": "CA",
        "name": "Ventura County",
        "lat": 34.358741,
        "long": -119.133143
    },
    {
        "fip": "6113",
        "state": "CA",
        "name": "Yolo County",
        "lat": 38.679596,
        "long": -121.902441
    },
    {
        "fip": "6115",
        "state": "CA",
        "name": "Yuba County",
        "lat": 39.27013,
        "long": -121.344259
    },
    {
        "fip": "8001",
        "state": "CO",
        "name": "Adams County",
        "lat": 39.874325,
        "long": -104.331872
    },
    {
        "fip": "8003",
        "state": "CO",
        "name": "Alamosa County",
        "lat": 37.568442,
        "long": -105.788041
    },
    {
        "fip": "8005",
        "state": "CO",
        "name": "Arapahoe County",
        "lat": 39.644554,
        "long": -104.331706
    },
    {
        "fip": "8007",
        "state": "CO",
        "name": "Archuleta County",
        "lat": 37.202395,
        "long": -107.050863
    },
    {
        "fip": "8009",
        "state": "CO",
        "name": "Baca County",
        "lat": 37.30978,
        "long": -102.543741
    },
    {
        "fip": "8011",
        "state": "CO",
        "name": "Bent County",
        "lat": 37.931891,
        "long": -103.077584
    },
    {
        "fip": "8013",
        "state": "CO",
        "name": "Boulder County",
        "lat": 40.09497,
        "long": -105.397691
    },
    {
        "fip": "8014",
        "state": "CO",
        "name": "Broomfield County",
        "lat": 39.953593,
        "long": -105.050787
    },
    {
        "fip": "8015",
        "state": "CO",
        "name": "Chaffee County",
        "lat": 38.738223,
        "long": -106.316683
    },
    {
        "fip": "8017",
        "state": "CO",
        "name": "Cheyenne County",
        "lat": 38.835646,
        "long": -102.601791
    },
    {
        "fip": "8019",
        "state": "CO",
        "name": "Clear Creek County",
        "lat": 39.669732,
        "long": -105.69257
    },
    {
        "fip": "8021",
        "state": "CO",
        "name": "Conejos County",
        "lat": 37.213406,
        "long": -106.176447
    },
    {
        "fip": "8023",
        "state": "CO",
        "name": "Costilla County",
        "lat": 37.277547,
        "long": -105.42894
    },
    {
        "fip": "8025",
        "state": "CO",
        "name": "Crowley County",
        "lat": 38.30618,
        "long": -103.772736
    },
    {
        "fip": "8027",
        "state": "CO",
        "name": "Custer County",
        "lat": 38.101996,
        "long": -105.373512
    },
    {
        "fip": "8029",
        "state": "CO",
        "name": "Delta County",
        "lat": 38.861595,
        "long": -107.864892
    },
    {
        "fip": "8031",
        "state": "CO",
        "name": "Denver County",
        "lat": 39.76185,
        "long": -104.881105
    },
    {
        "fip": "8033",
        "state": "CO",
        "name": "Dolores County",
        "lat": 37.711723,
        "long": -108.524116
    },
    {
        "fip": "8035",
        "state": "CO",
        "name": "Douglas County",
        "lat": 39.325414,
        "long": -104.925987
    },
    {
        "fip": "8037",
        "state": "CO",
        "name": "Eagle County",
        "lat": 39.626992,
        "long": -106.695169
    },
    {
        "fip": "8039",
        "state": "CO",
        "name": "Elbert County",
        "lat": 39.315157,
        "long": -104.114076
    },
    {
        "fip": "8041",
        "state": "CO",
        "name": "El Paso County",
        "lat": 38.827383,
        "long": -104.527472
    },
    {
        "fip": "8043",
        "state": "CO",
        "name": "Fremont County",
        "lat": 38.45517,
        "long": -105.424958
    },
    {
        "fip": "8045",
        "state": "CO",
        "name": "Garfield County",
        "lat": 39.599352,
        "long": -107.90978
    },
    {
        "fip": "8047",
        "state": "CO",
        "name": "Gilpin County",
        "lat": 39.861156,
        "long": -105.528878
    },
    {
        "fip": "8049",
        "state": "CO",
        "name": "Grand County",
        "lat": 40.113065,
        "long": -106.110837
    },
    {
        "fip": "8051",
        "state": "CO",
        "name": "Gunnison County",
        "lat": 38.670499,
        "long": -107.05688
    },
    {
        "fip": "8053",
        "state": "CO",
        "name": "Hinsdale County",
        "lat": 37.821165,
        "long": -107.338261
    },
    {
        "fip": "8055",
        "state": "CO",
        "name": "Huerfano County",
        "lat": 37.687815,
        "long": -104.959928
    },
    {
        "fip": "8057",
        "state": "CO",
        "name": "Jackson County",
        "lat": 40.663432,
        "long": -106.329248
    },
    {
        "fip": "8059",
        "state": "CO",
        "name": "Jefferson County",
        "lat": 39.579511,
        "long": -105.245462
    },
    {
        "fip": "8061",
        "state": "CO",
        "name": "Kiowa County",
        "lat": 38.387663,
        "long": -102.756849
    },
    {
        "fip": "8063",
        "state": "CO",
        "name": "Kit Carson County",
        "lat": 39.30534,
        "long": -102.603023
    },
    {
        "fip": "8065",
        "state": "CO",
        "name": "Lake County",
        "lat": 39.205341,
        "long": -106.350079
    },
    {
        "fip": "8067",
        "state": "CO",
        "name": "La Plata County",
        "lat": 37.287367,
        "long": -107.839718
    },
    {
        "fip": "8069",
        "state": "CO",
        "name": "Larimer County",
        "lat": 40.658093,
        "long": -105.486764
    },
    {
        "fip": "8071",
        "state": "CO",
        "name": "Las Animas County",
        "lat": 37.318831,
        "long": -104.04411
    },
    {
        "fip": "8073",
        "state": "CO",
        "name": "Lincoln County",
        "lat": 38.99374,
        "long": -103.507555
    },
    {
        "fip": "8075",
        "state": "CO",
        "name": "Logan County",
        "lat": 40.728091,
        "long": -103.090464
    },
    {
        "fip": "8077",
        "state": "CO",
        "name": "Mesa County",
        "lat": 39.019524,
        "long": -108.460571
    },
    {
        "fip": "8079",
        "state": "CO",
        "name": "Mineral County",
        "lat": 37.549067,
        "long": -107.003236
    },
    {
        "fip": "8081",
        "state": "CO",
        "name": "Moffat County",
        "lat": 40.610864,
        "long": -108.217154
    },
    {
        "fip": "8083",
        "state": "CO",
        "name": "Montezuma County",
        "lat": 37.338025,
        "long": -108.595786
    },
    {
        "fip": "8085",
        "state": "CO",
        "name": "Montrose County",
        "lat": 38.407507,
        "long": -108.266282
    },
    {
        "fip": "8087",
        "state": "CO",
        "name": "Morgan County",
        "lat": 40.263159,
        "long": -103.81221
    },
    {
        "fip": "8089",
        "state": "CO",
        "name": "Otero County",
        "lat": 37.88417,
        "long": -103.72126
    },
    {
        "fip": "8091",
        "state": "CO",
        "name": "Ouray County",
        "lat": 38.154731,
        "long": -107.78848
    },
    {
        "fip": "8093",
        "state": "CO",
        "name": "Park County",
        "lat": 39.118914,
        "long": -105.717648
    },
    {
        "fip": "8095",
        "state": "CO",
        "name": "Phillips County",
        "lat": 40.594712,
        "long": -102.345105
    },
    {
        "fip": "8097",
        "state": "CO",
        "name": "Pitkin County",
        "lat": 39.217538,
        "long": -106.916159
    },
    {
        "fip": "8099",
        "state": "CO",
        "name": "Prowers County",
        "lat": 37.958181,
        "long": -102.392161
    },
    {
        "fip": "8101",
        "state": "CO",
        "name": "Pueblo County",
        "lat": 38.170658,
        "long": -104.489892
    },
    {
        "fip": "8103",
        "state": "CO",
        "name": "Rio Blanco County",
        "lat": 39.972622,
        "long": -108.200716
    },
    {
        "fip": "8105",
        "state": "CO",
        "name": "Rio Grande County",
        "lat": 37.485853,
        "long": -106.453128
    },
    {
        "fip": "8107",
        "state": "CO",
        "name": "Routt County",
        "lat": 40.483664,
        "long": -106.987702
    },
    {
        "fip": "8109",
        "state": "CO",
        "name": "Saguache County",
        "lat": 38.031651,
        "long": -106.234666
    },
    {
        "fip": "8111",
        "state": "CO",
        "name": "San Juan County",
        "lat": 37.781049,
        "long": -107.670257
    },
    {
        "fip": "8113",
        "state": "CO",
        "name": "San Miguel County",
        "lat": 38.009319,
        "long": -108.427263
    },
    {
        "fip": "8115",
        "state": "CO",
        "name": "Sedgwick County",
        "lat": 40.871568,
        "long": -102.355358
    },
    {
        "fip": "8117",
        "state": "CO",
        "name": "Summit County",
        "lat": 39.621023,
        "long": -106.137555
    },
    {
        "fip": "8119",
        "state": "CO",
        "name": "Teller County",
        "lat": 38.869976,
        "long": -105.187365
    },
    {
        "fip": "8121",
        "state": "CO",
        "name": "Washington County",
        "lat": 39.96579,
        "long": -103.209744
    },
    {
        "fip": "8123",
        "state": "CO",
        "name": "Weld County",
        "lat": 40.555961,
        "long": -104.383666
    },
    {
        "fip": "8125",
        "state": "CO",
        "name": "Yuma County",
        "lat": 40.00077,
        "long": -102.421649
    },
    {
        "fip": "9001",
        "state": "CT",
        "name": "Fairfield County",
        "lat": 41.227413,
        "long": -73.367061
    },
    {
        "fip": "9003",
        "state": "CT",
        "name": "Hartford County",
        "lat": 41.806053,
        "long": -72.732916
    },
    {
        "fip": "9005",
        "state": "CT",
        "name": "Litchfield County",
        "lat": 41.791883,
        "long": -73.235404
    },
    {
        "fip": "9007",
        "state": "CT",
        "name": "Middlesex County",
        "lat": 41.433003,
        "long": -72.52278
    },
    {
        "fip": "9009",
        "state": "CT",
        "name": "New Haven County",
        "lat": 41.349718,
        "long": -72.900203
    },
    {
        "fip": "9011",
        "state": "CT",
        "name": "New London County",
        "lat": 41.472652,
        "long": -72.108634
    },
    {
        "fip": "9013",
        "state": "CT",
        "name": "Tolland County",
        "lat": 41.858081,
        "long": -72.340978
    },
    {
        "fip": "9015",
        "state": "CT",
        "name": "Windham County",
        "lat": 41.824999,
        "long": -71.990702
    },
    {
        "fip": "10001",
        "state": "DE",
        "name": "Kent County",
        "lat": 39.097088,
        "long": -75.502982
    },
    {
        "fip": "10003",
        "state": "DE",
        "name": "New Castle County",
        "lat": 39.575915,
        "long": -75.644132
    },
    {
        "fip": "10005",
        "state": "DE",
        "name": "Sussex County",
        "lat": 38.673227,
        "long": -75.337024
    },
    {
        "fip": "11001",
        "state": "DC",
        "name": "District of Columbia",
        "lat": 38.904247,
        "long": -77.016517
    },
    {
        "fip": "12001",
        "state": "FL",
        "name": "Alachua County",
        "lat": 29.67574,
        "long": -82.357221
    },
    {
        "fip": "12003",
        "state": "FL",
        "name": "Baker County",
        "lat": 30.324442,
        "long": -82.302284
    },
    {
        "fip": "12005",
        "state": "FL",
        "name": "Bay County",
        "lat": 30.238218,
        "long": -85.63168
    },
    {
        "fip": "12007",
        "state": "FL",
        "name": "Bradford County",
        "lat": 29.952386,
        "long": -82.166679
    },
    {
        "fip": "12009",
        "state": "FL",
        "name": "Brevard County",
        "lat": 28.298311,
        "long": -80.700333
    },
    {
        "fip": "12011",
        "state": "FL",
        "name": "Broward County",
        "lat": 26.193535,
        "long": -80.476683
    },
    {
        "fip": "12013",
        "state": "FL",
        "name": "Calhoun County",
        "lat": 30.388801,
        "long": -85.197915
    },
    {
        "fip": "12015",
        "state": "FL",
        "name": "Charlotte County",
        "lat": 26.868974,
        "long": -81.941278
    },
    {
        "fip": "12017",
        "state": "FL",
        "name": "Citrus County",
        "lat": 28.84364,
        "long": -82.52481
    },
    {
        "fip": "12019",
        "state": "FL",
        "name": "Clay County",
        "lat": 29.986584,
        "long": -81.865036
    },
    {
        "fip": "12021",
        "state": "FL",
        "name": "Collier County",
        "lat": 26.118786,
        "long": -81.400955
    },
    {
        "fip": "12023",
        "state": "FL",
        "name": "Columbia County",
        "lat": 30.221651,
        "long": -82.623371
    },
    {
        "fip": "12027",
        "state": "FL",
        "name": "DeSoto County",
        "lat": 27.190581,
        "long": -81.806253
    },
    {
        "fip": "12029",
        "state": "FL",
        "name": "Dixie County",
        "lat": 29.580899,
        "long": -83.195666
    },
    {
        "fip": "12031",
        "state": "FL",
        "name": "Duval County",
        "lat": 30.335245,
        "long": -81.648113
    },
    {
        "fip": "12033",
        "state": "FL",
        "name": "Escambia County",
        "lat": 30.611638,
        "long": -87.3389
    },
    {
        "fip": "12035",
        "state": "FL",
        "name": "Flagler County",
        "lat": 29.474891,
        "long": -81.286253
    },
    {
        "fip": "12037",
        "state": "FL",
        "name": "Franklin County",
        "lat": 29.810176,
        "long": -84.799174
    },
    {
        "fip": "12039",
        "state": "FL",
        "name": "Gadsden County",
        "lat": 30.578687,
        "long": -84.612607
    },
    {
        "fip": "12041",
        "state": "FL",
        "name": "Gilchrist County",
        "lat": 29.723456,
        "long": -82.795801
    },
    {
        "fip": "12043",
        "state": "FL",
        "name": "Glades County",
        "lat": 26.95481,
        "long": -81.19082
    },
    {
        "fip": "12045",
        "state": "FL",
        "name": "Gulf County",
        "lat": 29.907257,
        "long": -85.256537
    },
    {
        "fip": "12047",
        "state": "FL",
        "name": "Hamilton County",
        "lat": 30.491187,
        "long": -82.951071
    },
    {
        "fip": "12049",
        "state": "FL",
        "name": "Hardee County",
        "lat": 27.492846,
        "long": -81.82158
    },
    {
        "fip": "12051",
        "state": "FL",
        "name": "Hendry County",
        "lat": 26.539967,
        "long": -81.152114
    },
    {
        "fip": "12053",
        "state": "FL",
        "name": "Hernando County",
        "lat": 28.573043,
        "long": -82.466227
    },
    {
        "fip": "12055",
        "state": "FL",
        "name": "Highlands County",
        "lat": 27.34108,
        "long": -81.342353
    },
    {
        "fip": "12057",
        "state": "FL",
        "name": "Hillsborough County",
        "lat": 27.906607,
        "long": -82.349719
    },
    {
        "fip": "12059",
        "state": "FL",
        "name": "Holmes County",
        "lat": 30.862007,
        "long": -85.815939
    },
    {
        "fip": "12061",
        "state": "FL",
        "name": "Indian River County",
        "lat": 27.700528,
        "long": -80.574789
    },
    {
        "fip": "12063",
        "state": "FL",
        "name": "Jackson County",
        "lat": 30.789249,
        "long": -85.208814
    },
    {
        "fip": "12065",
        "state": "FL",
        "name": "Jefferson County",
        "lat": 30.424558,
        "long": -83.890859
    },
    {
        "fip": "12067",
        "state": "FL",
        "name": "Lafayette County",
        "lat": 29.990066,
        "long": -83.17851
    },
    {
        "fip": "12069",
        "state": "FL",
        "name": "Lake County",
        "lat": 28.764113,
        "long": -81.712282
    },
    {
        "fip": "12071",
        "state": "FL",
        "name": "Lee County",
        "lat": 26.559035,
        "long": -81.891994
    },
    {
        "fip": "12073",
        "state": "FL",
        "name": "Leon County",
        "lat": 30.45931,
        "long": -84.2778
    },
    {
        "fip": "12075",
        "state": "FL",
        "name": "Levy County",
        "lat": 29.284457,
        "long": -82.783462
    },
    {
        "fip": "12077",
        "state": "FL",
        "name": "Liberty County",
        "lat": 30.259849,
        "long": -84.86858
    },
    {
        "fip": "12079",
        "state": "FL",
        "name": "Madison County",
        "lat": 30.447233,
        "long": -83.470416
    },
    {
        "fip": "12081",
        "state": "FL",
        "name": "Manatee County",
        "lat": 27.481682,
        "long": -82.368767
    },
    {
        "fip": "12083",
        "state": "FL",
        "name": "Marion County",
        "lat": 29.202805,
        "long": -82.0431
    },
    {
        "fip": "12085",
        "state": "FL",
        "name": "Martin County",
        "lat": 27.083604,
        "long": -80.398201
    },
    {
        "fip": "12086",
        "state": "FL",
        "name": "Miami-Dade County",
        "lat": 25.61058,
        "long": -80.497099
    },
    {
        "fip": "12087",
        "state": "FL",
        "name": "Monroe County",
        "lat": 24.768883,
        "long": -80.95327
    },
    {
        "fip": "12089",
        "state": "FL",
        "name": "Nassau County",
        "lat": 30.605963,
        "long": -81.765087
    },
    {
        "fip": "12091",
        "state": "FL",
        "name": "Okaloosa County",
        "lat": 30.665851,
        "long": -86.594187
    },
    {
        "fip": "12093",
        "state": "FL",
        "name": "Okeechobee County",
        "lat": 27.385592,
        "long": -80.887388
    },
    {
        "fip": "12095",
        "state": "FL",
        "name": "Orange County",
        "lat": 28.514391,
        "long": -81.323284
    },
    {
        "fip": "12097",
        "state": "FL",
        "name": "Osceola County",
        "lat": 28.059027,
        "long": -81.139312
    },
    {
        "fip": "12099",
        "state": "FL",
        "name": "Palm Beach County",
        "lat": 26.649126,
        "long": -80.448354
    },
    {
        "fip": "12101",
        "state": "FL",
        "name": "Pasco County",
        "lat": 28.307711,
        "long": -82.464832
    },
    {
        "fip": "12103",
        "state": "FL",
        "name": "Pinellas County",
        "lat": 27.903108,
        "long": -82.739519
    },
    {
        "fip": "12105",
        "state": "FL",
        "name": "Polk County",
        "lat": 27.953649,
        "long": -81.693534
    },
    {
        "fip": "12107",
        "state": "FL",
        "name": "Putnam County",
        "lat": 29.593896,
        "long": -81.732039
    },
    {
        "fip": "12109",
        "state": "FL",
        "name": "St. Johns County",
        "lat": 29.890487,
        "long": -81.40004
    },
    {
        "fip": "12111",
        "state": "FL",
        "name": "St. Lucie County",
        "lat": 27.379814,
        "long": -80.443536
    },
    {
        "fip": "12113",
        "state": "FL",
        "name": "Santa Rosa County",
        "lat": 30.701269,
        "long": -87.01289
    },
    {
        "fip": "12115",
        "state": "FL",
        "name": "Sarasota County",
        "lat": 27.184386,
        "long": -82.365835
    },
    {
        "fip": "12117",
        "state": "FL",
        "name": "Seminole County",
        "lat": 28.690092,
        "long": -81.131989
    },
    {
        "fip": "12119",
        "state": "FL",
        "name": "Sumter County",
        "lat": 28.714101,
        "long": -82.074347
    },
    {
        "fip": "12121",
        "state": "FL",
        "name": "Suwannee County",
        "lat": 30.189244,
        "long": -82.992754
    },
    {
        "fip": "12123",
        "state": "FL",
        "name": "Taylor County",
        "lat": 30.009908,
        "long": -83.609483
    },
    {
        "fip": "12125",
        "state": "FL",
        "name": "Union County",
        "lat": 30.05428,
        "long": -82.366918
    },
    {
        "fip": "12127",
        "state": "FL",
        "name": "Volusia County",
        "lat": 29.057769,
        "long": -81.161792
    },
    {
        "fip": "12129",
        "state": "FL",
        "name": "Wakulla County",
        "lat": 30.139432,
        "long": -84.374846
    },
    {
        "fip": "12131",
        "state": "FL",
        "name": "Walton County",
        "lat": 30.631211,
        "long": -86.176614
    },
    {
        "fip": "12133",
        "state": "FL",
        "name": "Washington County",
        "lat": 30.602217,
        "long": -85.662797
    },
    {
        "fip": "13001",
        "state": "GA",
        "name": "Appling County",
        "lat": 31.739712,
        "long": -82.290103
    },
    {
        "fip": "13003",
        "state": "GA",
        "name": "Atkinson County",
        "lat": 31.296806,
        "long": -82.878151
    },
    {
        "fip": "13005",
        "state": "GA",
        "name": "Bacon County",
        "lat": 31.55021,
        "long": -82.451433
    },
    {
        "fip": "13007",
        "state": "GA",
        "name": "Baker County",
        "lat": 31.31958,
        "long": -84.454881
    },
    {
        "fip": "13009",
        "state": "GA",
        "name": "Baldwin County",
        "lat": 33.05949,
        "long": -83.255457
    },
    {
        "fip": "13011",
        "state": "GA",
        "name": "Banks County",
        "lat": 34.351922,
        "long": -83.498441
    },
    {
        "fip": "13013",
        "state": "GA",
        "name": "Barrow County",
        "lat": 33.992009,
        "long": -83.712303
    },
    {
        "fip": "13015",
        "state": "GA",
        "name": "Bartow County",
        "lat": 34.240917,
        "long": -84.838188
    },
    {
        "fip": "13017",
        "state": "GA",
        "name": "Ben Hill County",
        "lat": 31.740772,
        "long": -83.147197
    },
    {
        "fip": "13019",
        "state": "GA",
        "name": "Berrien County",
        "lat": 31.288652,
        "long": -83.22787
    },
    {
        "fip": "13021",
        "state": "GA",
        "name": "Bibb County",
        "lat": 32.808845,
        "long": -83.694194
    },
    {
        "fip": "13023",
        "state": "GA",
        "name": "Bleckley County",
        "lat": 32.435403,
        "long": -83.331717
    },
    {
        "fip": "13025",
        "state": "GA",
        "name": "Brantley County",
        "lat": 31.197334,
        "long": -81.982978
    },
    {
        "fip": "13027",
        "state": "GA",
        "name": "Brooks County",
        "lat": 30.822934,
        "long": -83.581905
    },
    {
        "fip": "13029",
        "state": "GA",
        "name": "Bryan County",
        "lat": 32.017969,
        "long": -81.438543
    },
    {
        "fip": "13031",
        "state": "GA",
        "name": "Bulloch County",
        "lat": 32.391711,
        "long": -81.744021
    },
    {
        "fip": "13033",
        "state": "GA",
        "name": "Burke County",
        "lat": 33.060181,
        "long": -82.000164
    },
    {
        "fip": "13035",
        "state": "GA",
        "name": "Butts County",
        "lat": 33.290355,
        "long": -83.958221
    },
    {
        "fip": "13037",
        "state": "GA",
        "name": "Calhoun County",
        "lat": 31.521279,
        "long": -84.62629
    },
    {
        "fip": "13039",
        "state": "GA",
        "name": "Camden County",
        "lat": 30.913358,
        "long": -81.642019
    },
    {
        "fip": "13043",
        "state": "GA",
        "name": "Candler County",
        "lat": 32.40395,
        "long": -82.071266
    },
    {
        "fip": "13045",
        "state": "GA",
        "name": "Carroll County",
        "lat": 33.582237,
        "long": -85.080527
    },
    {
        "fip": "13047",
        "state": "GA",
        "name": "Catoosa County",
        "lat": 34.900218,
        "long": -85.139386
    },
    {
        "fip": "13049",
        "state": "GA",
        "name": "Charlton County",
        "lat": 30.779904,
        "long": -82.139644
    },
    {
        "fip": "13051",
        "state": "GA",
        "name": "Chatham County",
        "lat": 31.980404,
        "long": -81.085184
    },
    {
        "fip": "13053",
        "state": "GA",
        "name": "Chattahoochee County",
        "lat": 32.347445,
        "long": -84.788021
    },
    {
        "fip": "13055",
        "state": "GA",
        "name": "Chattooga County",
        "lat": 34.474178,
        "long": -85.345289
    },
    {
        "fip": "13057",
        "state": "GA",
        "name": "Cherokee County",
        "lat": 34.244317,
        "long": -84.475057
    },
    {
        "fip": "13059",
        "state": "GA",
        "name": "Clarke County",
        "lat": 33.952185,
        "long": -83.367152
    },
    {
        "fip": "13061",
        "state": "GA",
        "name": "Clay County",
        "lat": 31.619831,
        "long": -84.992583
    },
    {
        "fip": "13063",
        "state": "GA",
        "name": "Clayton County",
        "lat": 33.542686,
        "long": -84.355573
    },
    {
        "fip": "13065",
        "state": "GA",
        "name": "Clinch County",
        "lat": 30.917653,
        "long": -82.702614
    },
    {
        "fip": "13067",
        "state": "GA",
        "name": "Cobb County",
        "lat": 33.93993,
        "long": -84.574112
    },
    {
        "fip": "13069",
        "state": "GA",
        "name": "Coffee County",
        "lat": 31.549245,
        "long": -82.84494
    },
    {
        "fip": "13071",
        "state": "GA",
        "name": "Colquitt County",
        "lat": 31.189707,
        "long": -83.769773
    },
    {
        "fip": "13073",
        "state": "GA",
        "name": "Columbia County",
        "lat": 33.547631,
        "long": -82.252296
    },
    {
        "fip": "13075",
        "state": "GA",
        "name": "Cook County",
        "lat": 31.152516,
        "long": -83.429445
    },
    {
        "fip": "13077",
        "state": "GA",
        "name": "Coweta County",
        "lat": 33.352897,
        "long": -84.762138
    },
    {
        "fip": "13079",
        "state": "GA",
        "name": "Crawford County",
        "lat": 32.709428,
        "long": -83.979187
    },
    {
        "fip": "13081",
        "state": "GA",
        "name": "Crisp County",
        "lat": 31.915148,
        "long": -83.753531
    },
    {
        "fip": "13083",
        "state": "GA",
        "name": "Dade County",
        "lat": 34.852424,
        "long": -85.506201
    },
    {
        "fip": "13085",
        "state": "GA",
        "name": "Dawson County",
        "lat": 34.442608,
        "long": -84.173261
    },
    {
        "fip": "13087",
        "state": "GA",
        "name": "Decatur County",
        "lat": 30.880643,
        "long": -84.58389
    },
    {
        "fip": "13089",
        "state": "GA",
        "name": "DeKalb County",
        "lat": 33.770661,
        "long": -84.226343
    },
    {
        "fip": "13091",
        "state": "GA",
        "name": "Dodge County",
        "lat": 32.164369,
        "long": -83.167866
    },
    {
        "fip": "13093",
        "state": "GA",
        "name": "Dooly County",
        "lat": 32.151995,
        "long": -83.807167
    },
    {
        "fip": "13095",
        "state": "GA",
        "name": "Dougherty County",
        "lat": 31.532588,
        "long": -84.20904
    },
    {
        "fip": "13097",
        "state": "GA",
        "name": "Douglas County",
        "lat": 33.701242,
        "long": -84.767314
    },
    {
        "fip": "13099",
        "state": "GA",
        "name": "Early County",
        "lat": 31.324191,
        "long": -84.906723
    },
    {
        "fip": "13101",
        "state": "GA",
        "name": "Echols County",
        "lat": 30.714008,
        "long": -82.897376
    },
    {
        "fip": "13103",
        "state": "GA",
        "name": "Effingham County",
        "lat": 32.36168,
        "long": -81.343372
    },
    {
        "fip": "13105",
        "state": "GA",
        "name": "Elbert County",
        "lat": 34.116413,
        "long": -82.841909
    },
    {
        "fip": "13107",
        "state": "GA",
        "name": "Emanuel County",
        "lat": 32.5911,
        "long": -82.299763
    },
    {
        "fip": "13109",
        "state": "GA",
        "name": "Evans County",
        "lat": 32.153083,
        "long": -81.890153
    },
    {
        "fip": "13111",
        "state": "GA",
        "name": "Fannin County",
        "lat": 34.866543,
        "long": -84.317331
    },
    {
        "fip": "13113",
        "state": "GA",
        "name": "Fayette County",
        "lat": 33.412717,
        "long": -84.493941
    },
    {
        "fip": "13115",
        "state": "GA",
        "name": "Floyd County",
        "lat": 34.263692,
        "long": -85.213685
    },
    {
        "fip": "13117",
        "state": "GA",
        "name": "Forsyth County",
        "lat": 34.225143,
        "long": -84.127408
    },
    {
        "fip": "13119",
        "state": "GA",
        "name": "Franklin County",
        "lat": 34.375266,
        "long": -83.227532
    },
    {
        "fip": "13121",
        "state": "GA",
        "name": "Fulton County",
        "lat": 33.790034,
        "long": -84.468182
    },
    {
        "fip": "13123",
        "state": "GA",
        "name": "Gilmer County",
        "lat": 34.690506,
        "long": -84.454624
    },
    {
        "fip": "13125",
        "state": "GA",
        "name": "Glascock County",
        "lat": 33.227491,
        "long": -82.606913
    },
    {
        "fip": "13127",
        "state": "GA",
        "name": "Glynn County",
        "lat": 31.21271,
        "long": -81.49645
    },
    {
        "fip": "13129",
        "state": "GA",
        "name": "Gordon County",
        "lat": 34.509667,
        "long": -84.873862
    },
    {
        "fip": "13131",
        "state": "GA",
        "name": "Grady County",
        "lat": 30.875908,
        "long": -84.24508
    },
    {
        "fip": "13133",
        "state": "GA",
        "name": "Greene County",
        "lat": 33.57674,
        "long": -83.166613
    },
    {
        "fip": "13135",
        "state": "GA",
        "name": "Gwinnett County",
        "lat": 33.959146,
        "long": -84.023087
    },
    {
        "fip": "13137",
        "state": "GA",
        "name": "Habersham County",
        "lat": 34.634392,
        "long": -83.525875
    },
    {
        "fip": "13139",
        "state": "GA",
        "name": "Hall County",
        "lat": 34.317569,
        "long": -83.8185
    },
    {
        "fip": "13141",
        "state": "GA",
        "name": "Hancock County",
        "lat": 33.26922,
        "long": -83.000465
    },
    {
        "fip": "13143",
        "state": "GA",
        "name": "Haralson County",
        "lat": 33.795165,
        "long": -85.220063
    },
    {
        "fip": "13145",
        "state": "GA",
        "name": "Harris County",
        "lat": 32.731549,
        "long": -84.912432
    },
    {
        "fip": "13147",
        "state": "GA",
        "name": "Hart County",
        "lat": 34.348733,
        "long": -82.96329
    },
    {
        "fip": "13149",
        "state": "GA",
        "name": "Heard County",
        "lat": 33.291347,
        "long": -85.137886
    },
    {
        "fip": "13151",
        "state": "GA",
        "name": "Henry County",
        "lat": 33.452947,
        "long": -84.154021
    },
    {
        "fip": "13153",
        "state": "GA",
        "name": "Houston County",
        "lat": 32.458287,
        "long": -83.662522
    },
    {
        "fip": "13155",
        "state": "GA",
        "name": "Irwin County",
        "lat": 31.604306,
        "long": -83.277037
    },
    {
        "fip": "13157",
        "state": "GA",
        "name": "Jackson County",
        "lat": 34.130905,
        "long": -83.562557
    },
    {
        "fip": "13159",
        "state": "GA",
        "name": "Jasper County",
        "lat": 33.316981,
        "long": -83.689151
    },
    {
        "fip": "13161",
        "state": "GA",
        "name": "Jeff Davis County",
        "lat": 31.811615,
        "long": -82.636825
    },
    {
        "fip": "13163",
        "state": "GA",
        "name": "Jefferson County",
        "lat": 33.058176,
        "long": -82.420004
    },
    {
        "fip": "13165",
        "state": "GA",
        "name": "Jenkins County",
        "lat": 32.794563,
        "long": -81.971524
    },
    {
        "fip": "13167",
        "state": "GA",
        "name": "Johnson County",
        "lat": 32.694584,
        "long": -82.66397
    },
    {
        "fip": "13169",
        "state": "GA",
        "name": "Jones County",
        "lat": 33.021664,
        "long": -83.562196
    },
    {
        "fip": "13171",
        "state": "GA",
        "name": "Lamar County",
        "lat": 33.07444,
        "long": -84.146689
    },
    {
        "fip": "13173",
        "state": "GA",
        "name": "Lanier County",
        "lat": 31.038197,
        "long": -83.063164
    },
    {
        "fip": "13175",
        "state": "GA",
        "name": "Laurens County",
        "lat": 32.39322,
        "long": -82.926317
    },
    {
        "fip": "13177",
        "state": "GA",
        "name": "Lee County",
        "lat": 31.818419,
        "long": -84.146681
    },
    {
        "fip": "13179",
        "state": "GA",
        "name": "Liberty County",
        "lat": 31.807458,
        "long": -81.457871
    },
    {
        "fip": "13181",
        "state": "GA",
        "name": "Lincoln County",
        "lat": 33.792151,
        "long": -82.448299
    },
    {
        "fip": "13183",
        "state": "GA",
        "name": "Long County",
        "lat": 31.749563,
        "long": -81.74287
    },
    {
        "fip": "13185",
        "state": "GA",
        "name": "Lowndes County",
        "lat": 30.833145,
        "long": -83.268995
    },
    {
        "fip": "13187",
        "state": "GA",
        "name": "Lumpkin County",
        "lat": 34.56814,
        "long": -83.998925
    },
    {
        "fip": "13189",
        "state": "GA",
        "name": "McDuffie County",
        "lat": 33.479623,
        "long": -82.478733
    },
    {
        "fip": "13191",
        "state": "GA",
        "name": "McIntosh County",
        "lat": 31.488506,
        "long": -81.372289
    },
    {
        "fip": "13193",
        "state": "GA",
        "name": "Macon County",
        "lat": 32.362686,
        "long": -84.051231
    },
    {
        "fip": "13195",
        "state": "GA",
        "name": "Madison County",
        "lat": 34.128526,
        "long": -83.203737
    },
    {
        "fip": "13197",
        "state": "GA",
        "name": "Marion County",
        "lat": 32.359312,
        "long": -84.528735
    },
    {
        "fip": "13199",
        "state": "GA",
        "name": "Meriwether County",
        "lat": 33.029267,
        "long": -84.667058
    },
    {
        "fip": "13201",
        "state": "GA",
        "name": "Miller County",
        "lat": 31.162931,
        "long": -84.730398
    },
    {
        "fip": "13205",
        "state": "GA",
        "name": "Mitchell County",
        "lat": 31.228997,
        "long": -84.192038
    },
    {
        "fip": "13207",
        "state": "GA",
        "name": "Monroe County",
        "lat": 33.017435,
        "long": -83.922938
    },
    {
        "fip": "13209",
        "state": "GA",
        "name": "Montgomery County",
        "lat": 32.172108,
        "long": -82.533349
    },
    {
        "fip": "13211",
        "state": "GA",
        "name": "Morgan County",
        "lat": 33.598696,
        "long": -83.499435
    },
    {
        "fip": "13213",
        "state": "GA",
        "name": "Murray County",
        "lat": 34.797097,
        "long": -84.73799
    },
    {
        "fip": "13215",
        "state": "GA",
        "name": "Muscogee County",
        "lat": 32.510197,
        "long": -84.874946
    },
    {
        "fip": "13217",
        "state": "GA",
        "name": "Newton County",
        "lat": 33.544041,
        "long": -83.855184
    },
    {
        "fip": "13219",
        "state": "GA",
        "name": "Oconee County",
        "lat": 33.834125,
        "long": -83.437728
    },
    {
        "fip": "13221",
        "state": "GA",
        "name": "Oglethorpe County",
        "lat": 33.866806,
        "long": -83.074081
    },
    {
        "fip": "13223",
        "state": "GA",
        "name": "Paulding County",
        "lat": 33.92103,
        "long": -84.867169
    },
    {
        "fip": "13225",
        "state": "GA",
        "name": "Peach County",
        "lat": 32.571324,
        "long": -83.831978
    },
    {
        "fip": "13227",
        "state": "GA",
        "name": "Pickens County",
        "lat": 34.456746,
        "long": -84.490351
    },
    {
        "fip": "13229",
        "state": "GA",
        "name": "Pierce County",
        "lat": 31.353998,
        "long": -82.21037
    },
    {
        "fip": "13231",
        "state": "GA",
        "name": "Pike County",
        "lat": 33.081224,
        "long": -84.389848
    },
    {
        "fip": "13233",
        "state": "GA",
        "name": "Polk County",
        "lat": 33.996015,
        "long": -85.188338
    },
    {
        "fip": "13235",
        "state": "GA",
        "name": "Pulaski County",
        "lat": 32.238803,
        "long": -83.481845
    },
    {
        "fip": "13237",
        "state": "GA",
        "name": "Putnam County",
        "lat": 33.32106,
        "long": -83.37179
    },
    {
        "fip": "13239",
        "state": "GA",
        "name": "Quitman County",
        "lat": 31.862938,
        "long": -85.004798
    },
    {
        "fip": "13241",
        "state": "GA",
        "name": "Rabun County",
        "lat": 34.883934,
        "long": -83.40487
    },
    {
        "fip": "13243",
        "state": "GA",
        "name": "Randolph County",
        "lat": 31.762651,
        "long": -84.752311
    },
    {
        "fip": "13245",
        "state": "GA",
        "name": "Richmond County",
        "lat": 33.361486,
        "long": -82.074998
    },
    {
        "fip": "13247",
        "state": "GA",
        "name": "Rockdale County",
        "lat": 33.652081,
        "long": -84.02637
    },
    {
        "fip": "13249",
        "state": "GA",
        "name": "Schley County",
        "lat": 32.263444,
        "long": -84.322708
    },
    {
        "fip": "13251",
        "state": "GA",
        "name": "Screven County",
        "lat": 32.744751,
        "long": -81.617585
    },
    {
        "fip": "13253",
        "state": "GA",
        "name": "Seminole County",
        "lat": 30.93396,
        "long": -84.867685
    },
    {
        "fip": "13255",
        "state": "GA",
        "name": "Spalding County",
        "lat": 33.262348,
        "long": -84.284905
    },
    {
        "fip": "13257",
        "state": "GA",
        "name": "Stephens County",
        "lat": 34.552914,
        "long": -83.290216
    },
    {
        "fip": "13259",
        "state": "GA",
        "name": "Stewart County",
        "lat": 32.073225,
        "long": -84.834912
    },
    {
        "fip": "13261",
        "state": "GA",
        "name": "Sumter County",
        "lat": 32.042266,
        "long": -84.204294
    },
    {
        "fip": "13263",
        "state": "GA",
        "name": "Talbot County",
        "lat": 32.704603,
        "long": -84.530029
    },
    {
        "fip": "13265",
        "state": "GA",
        "name": "Taliaferro County",
        "lat": 33.559319,
        "long": -82.875272
    },
    {
        "fip": "13267",
        "state": "GA",
        "name": "Tattnall County",
        "lat": 32.043768,
        "long": -82.059208
    },
    {
        "fip": "13269",
        "state": "GA",
        "name": "Taylor County",
        "lat": 32.554667,
        "long": -84.251426
    },
    {
        "fip": "13271",
        "state": "GA",
        "name": "Telfair County",
        "lat": 31.913641,
        "long": -82.931063
    },
    {
        "fip": "13273",
        "state": "GA",
        "name": "Terrell County",
        "lat": 31.777191,
        "long": -84.439446
    },
    {
        "fip": "13275",
        "state": "GA",
        "name": "Thomas County",
        "lat": 30.864619,
        "long": -83.919815
    },
    {
        "fip": "13277",
        "state": "GA",
        "name": "Tift County",
        "lat": 31.457003,
        "long": -83.525931
    },
    {
        "fip": "13279",
        "state": "GA",
        "name": "Toombs County",
        "lat": 32.117812,
        "long": -82.330626
    },
    {
        "fip": "13281",
        "state": "GA",
        "name": "Towns County",
        "lat": 34.902529,
        "long": -83.732264
    },
    {
        "fip": "13283",
        "state": "GA",
        "name": "Treutlen County",
        "lat": 32.409586,
        "long": -82.570882
    },
    {
        "fip": "13285",
        "state": "GA",
        "name": "Troup County",
        "lat": 33.034482,
        "long": -85.02836
    },
    {
        "fip": "13287",
        "state": "GA",
        "name": "Turner County",
        "lat": 31.7248,
        "long": -83.620319
    },
    {
        "fip": "13289",
        "state": "GA",
        "name": "Twiggs County",
        "lat": 32.665847,
        "long": -83.425879
    },
    {
        "fip": "13291",
        "state": "GA",
        "name": "Union County",
        "lat": 34.833333,
        "long": -83.989257
    },
    {
        "fip": "13293",
        "state": "GA",
        "name": "Upson County",
        "lat": 32.881837,
        "long": -84.292283
    },
    {
        "fip": "13295",
        "state": "GA",
        "name": "Walker County",
        "lat": 34.735802,
        "long": -85.305456
    },
    {
        "fip": "13297",
        "state": "GA",
        "name": "Walton County",
        "lat": 33.783887,
        "long": -83.731829
    },
    {
        "fip": "13299",
        "state": "GA",
        "name": "Ware County",
        "lat": 31.050881,
        "long": -82.421507
    },
    {
        "fip": "13301",
        "state": "GA",
        "name": "Warren County",
        "lat": 33.419169,
        "long": -82.688012
    },
    {
        "fip": "13303",
        "state": "GA",
        "name": "Washington County",
        "lat": 32.971843,
        "long": -82.798112
    },
    {
        "fip": "13305",
        "state": "GA",
        "name": "Wayne County",
        "lat": 31.547845,
        "long": -81.912376
    },
    {
        "fip": "13307",
        "state": "GA",
        "name": "Webster County",
        "lat": 32.046691,
        "long": -84.553828
    },
    {
        "fip": "13309",
        "state": "GA",
        "name": "Wheeler County",
        "lat": 32.105258,
        "long": -82.733849
    },
    {
        "fip": "13311",
        "state": "GA",
        "name": "White County",
        "lat": 34.643776,
        "long": -83.743417
    },
    {
        "fip": "13313",
        "state": "GA",
        "name": "Whitfield County",
        "lat": 34.801726,
        "long": -84.968541
    },
    {
        "fip": "13315",
        "state": "GA",
        "name": "Wilcox County",
        "lat": 31.96272,
        "long": -83.438259
    },
    {
        "fip": "13317",
        "state": "GA",
        "name": "Wilkes County",
        "lat": 33.779031,
        "long": -82.747921
    },
    {
        "fip": "13319",
        "state": "GA",
        "name": "Wilkinson County",
        "lat": 32.804266,
        "long": -83.175512
    },
    {
        "fip": "13321",
        "state": "GA",
        "name": "Worth County",
        "lat": 31.551773,
        "long": -83.84996
    },
    {
        "fip": "15001",
        "state": "HI",
        "name": "Hawaii County",
        "lat": 19.597764,
        "long": -155.502443
    },
    {
        "fip": "15003",
        "state": "HI",
        "name": "Honolulu County",
        "lat": 21.580023,
        "long": -158.123406
    },
    {
        "fip": "15005",
        "state": "HI",
        "name": "Kalawao County",
        "lat": 21.218764,
        "long": -156.97401
    },
    {
        "fip": "15007",
        "state": "HI",
        "name": "Kauai County",
        "lat": 22.012038,
        "long": -159.705965
    },
    {
        "fip": "15009",
        "state": "HI",
        "name": "Maui County",
        "lat": 20.855931,
        "long": -156.60155
    },
    {
        "fip": "16001",
        "state": "ID",
        "name": "Ada County",
        "lat": 43.451477,
        "long": -116.244376
    },
    {
        "fip": "16003",
        "state": "ID",
        "name": "Adams County",
        "lat": 44.877004,
        "long": -116.461624
    },
    {
        "fip": "16005",
        "state": "ID",
        "name": "Bannock County",
        "lat": 42.692921,
        "long": -112.228982
    },
    {
        "fip": "16007",
        "state": "ID",
        "name": "Bear Lake County",
        "lat": 42.285892,
        "long": -111.327517
    },
    {
        "fip": "16009",
        "state": "ID",
        "name": "Benewah County",
        "lat": 47.218451,
        "long": -116.633541
    },
    {
        "fip": "16011",
        "state": "ID",
        "name": "Bingham County",
        "lat": 43.216357,
        "long": -112.399206
    },
    {
        "fip": "16013",
        "state": "ID",
        "name": "Blaine County",
        "lat": 43.394192,
        "long": -113.955371
    },
    {
        "fip": "16015",
        "state": "ID",
        "name": "Boise County",
        "lat": 43.987275,
        "long": -115.71511
    },
    {
        "fip": "16017",
        "state": "ID",
        "name": "Bonner County",
        "lat": 48.316796,
        "long": -116.612364
    },
    {
        "fip": "16019",
        "state": "ID",
        "name": "Bonneville County",
        "lat": 43.395171,
        "long": -111.621878
    },
    {
        "fip": "16021",
        "state": "ID",
        "name": "Boundary County",
        "lat": 48.773131,
        "long": -116.524668
    },
    {
        "fip": "16023",
        "state": "ID",
        "name": "Butte County",
        "lat": 43.685101,
        "long": -113.177631
    },
    {
        "fip": "16025",
        "state": "ID",
        "name": "Camas County",
        "lat": 43.502552,
        "long": -114.772135
    },
    {
        "fip": "16027",
        "state": "ID",
        "name": "Canyon County",
        "lat": 43.625796,
        "long": -116.709058
    },
    {
        "fip": "16029",
        "state": "ID",
        "name": "Caribou County",
        "lat": 42.786072,
        "long": -111.544273
    },
    {
        "fip": "16031",
        "state": "ID",
        "name": "Cassia County",
        "lat": 42.282313,
        "long": -113.626328
    },
    {
        "fip": "16033",
        "state": "ID",
        "name": "Clark County",
        "lat": 44.290218,
        "long": -112.354613
    },
    {
        "fip": "16035",
        "state": "ID",
        "name": "Clearwater County",
        "lat": 46.67257,
        "long": -115.6535
    },
    {
        "fip": "16037",
        "state": "ID",
        "name": "Custer County",
        "lat": 44.273351,
        "long": -114.252267
    },
    {
        "fip": "16039",
        "state": "ID",
        "name": "Elmore County",
        "lat": 43.394698,
        "long": -115.471205
    },
    {
        "fip": "16041",
        "state": "ID",
        "name": "Franklin County",
        "lat": 42.173609,
        "long": -111.822965
    },
    {
        "fip": "16043",
        "state": "ID",
        "name": "Fremont County",
        "lat": 44.218091,
        "long": -111.484429
    },
    {
        "fip": "16045",
        "state": "ID",
        "name": "Gem County",
        "lat": 44.061473,
        "long": -116.398784
    },
    {
        "fip": "16047",
        "state": "ID",
        "name": "Gooding County",
        "lat": 42.973185,
        "long": -114.82142
    },
    {
        "fip": "16049",
        "state": "ID",
        "name": "Idaho County",
        "lat": 45.849644,
        "long": -115.467337
    },
    {
        "fip": "16051",
        "state": "ID",
        "name": "Jefferson County",
        "lat": 43.796965,
        "long": -112.318588
    },
    {
        "fip": "16053",
        "state": "ID",
        "name": "Jerome County",
        "lat": 42.691395,
        "long": -114.262086
    },
    {
        "fip": "16055",
        "state": "ID",
        "name": "Kootenai County",
        "lat": 47.675966,
        "long": -116.695922
    },
    {
        "fip": "16057",
        "state": "ID",
        "name": "Latah County",
        "lat": 46.81892,
        "long": -116.730974
    },
    {
        "fip": "16059",
        "state": "ID",
        "name": "Lemhi County",
        "lat": 44.928506,
        "long": -113.887042
    },
    {
        "fip": "16061",
        "state": "ID",
        "name": "Lewis County",
        "lat": 46.236328,
        "long": -116.42376
    },
    {
        "fip": "16063",
        "state": "ID",
        "name": "Lincoln County",
        "lat": 42.986181,
        "long": -114.153899
    },
    {
        "fip": "16065",
        "state": "ID",
        "name": "Madison County",
        "lat": 43.788614,
        "long": -111.656993
    },
    {
        "fip": "16067",
        "state": "ID",
        "name": "Minidoka County",
        "lat": 42.857211,
        "long": -113.63984
    },
    {
        "fip": "16069",
        "state": "ID",
        "name": "Nez Perce County",
        "lat": 46.333791,
        "long": -116.760909
    },
    {
        "fip": "16071",
        "state": "ID",
        "name": "Oneida County",
        "lat": 42.183895,
        "long": -112.520449
    },
    {
        "fip": "16073",
        "state": "ID",
        "name": "Owyhee County",
        "lat": 42.572851,
        "long": -116.18969
    },
    {
        "fip": "16075",
        "state": "ID",
        "name": "Payette County",
        "lat": 44.00243,
        "long": -116.750238
    },
    {
        "fip": "16077",
        "state": "ID",
        "name": "Power County",
        "lat": 42.694126,
        "long": -112.844407
    },
    {
        "fip": "16079",
        "state": "ID",
        "name": "Shoshone County",
        "lat": 47.347694,
        "long": -115.885092
    },
    {
        "fip": "16081",
        "state": "ID",
        "name": "Teton County",
        "lat": 43.760994,
        "long": -111.211765
    },
    {
        "fip": "16083",
        "state": "ID",
        "name": "Twin Falls County",
        "lat": 42.352309,
        "long": -114.665639
    },
    {
        "fip": "16085",
        "state": "ID",
        "name": "Valley County",
        "lat": 44.85596,
        "long": -115.618061
    },
    {
        "fip": "16087",
        "state": "ID",
        "name": "Washington County",
        "lat": 44.448223,
        "long": -116.797792
    },
    {
        "fip": "17001",
        "state": "IL",
        "name": "Adams County",
        "lat": 39.986052,
        "long": -91.194961
    },
    {
        "fip": "17003",
        "state": "IL",
        "name": "Alexander County",
        "lat": 37.183658,
        "long": -89.349516
    },
    {
        "fip": "17005",
        "state": "IL",
        "name": "Bond County",
        "lat": 38.885924,
        "long": -89.436592
    },
    {
        "fip": "17007",
        "state": "IL",
        "name": "Boone County",
        "lat": 42.318983,
        "long": -88.824295
    },
    {
        "fip": "17009",
        "state": "IL",
        "name": "Brown County",
        "lat": 39.962069,
        "long": -90.750309
    },
    {
        "fip": "17011",
        "state": "IL",
        "name": "Bureau County",
        "lat": 41.401304,
        "long": -89.528377
    },
    {
        "fip": "17013",
        "state": "IL",
        "name": "Calhoun County",
        "lat": 39.164262,
        "long": -90.666295
    },
    {
        "fip": "17015",
        "state": "IL",
        "name": "Carroll County",
        "lat": 42.0709,
        "long": -89.924189
    },
    {
        "fip": "17017",
        "state": "IL",
        "name": "Cass County",
        "lat": 39.969202,
        "long": -90.245704
    },
    {
        "fip": "17019",
        "state": "IL",
        "name": "Champaign County",
        "lat": 40.138985,
        "long": -88.196975
    },
    {
        "fip": "17021",
        "state": "IL",
        "name": "Christian County",
        "lat": 39.545524,
        "long": -89.279593
    },
    {
        "fip": "17023",
        "state": "IL",
        "name": "Clark County",
        "lat": 39.332334,
        "long": -87.791683
    },
    {
        "fip": "17025",
        "state": "IL",
        "name": "Clay County",
        "lat": 38.746819,
        "long": -88.482325
    },
    {
        "fip": "17027",
        "state": "IL",
        "name": "Clinton County",
        "lat": 38.606295,
        "long": -89.426228
    },
    {
        "fip": "17029",
        "state": "IL",
        "name": "Coles County",
        "lat": 39.51368,
        "long": -88.220782
    },
    {
        "fip": "17031",
        "state": "IL",
        "name": "Cook County",
        "lat": 41.894294,
        "long": -87.645455
    },
    {
        "fip": "17033",
        "state": "IL",
        "name": "Crawford County",
        "lat": 39.002787,
        "long": -87.760619
    },
    {
        "fip": "17035",
        "state": "IL",
        "name": "Cumberland County",
        "lat": 39.273121,
        "long": -88.240619
    },
    {
        "fip": "17037",
        "state": "IL",
        "name": "DeKalb County",
        "lat": 41.894612,
        "long": -88.768991
    },
    {
        "fip": "17039",
        "state": "IL",
        "name": "De Witt County",
        "lat": 40.181499,
        "long": -88.901853
    },
    {
        "fip": "17041",
        "state": "IL",
        "name": "Douglas County",
        "lat": 39.766078,
        "long": -88.222866
    },
    {
        "fip": "17043",
        "state": "IL",
        "name": "DuPage County",
        "lat": 41.852058,
        "long": -88.086039
    },
    {
        "fip": "17045",
        "state": "IL",
        "name": "Edgar County",
        "lat": 39.679037,
        "long": -87.74711
    },
    {
        "fip": "17047",
        "state": "IL",
        "name": "Edwards County",
        "lat": 38.417095,
        "long": -88.047941
    },
    {
        "fip": "17049",
        "state": "IL",
        "name": "Effingham County",
        "lat": 39.047945,
        "long": -88.592849
    },
    {
        "fip": "17051",
        "state": "IL",
        "name": "Fayette County",
        "lat": 39.001125,
        "long": -89.017923
    },
    {
        "fip": "17053",
        "state": "IL",
        "name": "Ford County",
        "lat": 40.596539,
        "long": -88.224588
    },
    {
        "fip": "17055",
        "state": "IL",
        "name": "Franklin County",
        "lat": 37.991852,
        "long": -88.926321
    },
    {
        "fip": "17057",
        "state": "IL",
        "name": "Fulton County",
        "lat": 40.46524,
        "long": -90.202269
    },
    {
        "fip": "17059",
        "state": "IL",
        "name": "Gallatin County",
        "lat": 37.768677,
        "long": -88.227964
    },
    {
        "fip": "17061",
        "state": "IL",
        "name": "Greene County",
        "lat": 39.355439,
        "long": -90.387682
    },
    {
        "fip": "17063",
        "state": "IL",
        "name": "Grundy County",
        "lat": 41.29241,
        "long": -88.401054
    },
    {
        "fip": "17065",
        "state": "IL",
        "name": "Hamilton County",
        "lat": 38.085227,
        "long": -88.539009
    },
    {
        "fip": "17067",
        "state": "IL",
        "name": "Hancock County",
        "lat": 40.401318,
        "long": -91.168801
    },
    {
        "fip": "17069",
        "state": "IL",
        "name": "Hardin County",
        "lat": 37.517852,
        "long": -88.266148
    },
    {
        "fip": "17071",
        "state": "IL",
        "name": "Henderson County",
        "lat": 40.814471,
        "long": -90.941246
    },
    {
        "fip": "17073",
        "state": "IL",
        "name": "Henry County",
        "lat": 41.350021,
        "long": -90.130838
    },
    {
        "fip": "17075",
        "state": "IL",
        "name": "Iroquois County",
        "lat": 40.748867,
        "long": -87.833601
    },
    {
        "fip": "17077",
        "state": "IL",
        "name": "Jackson County",
        "lat": 37.786096,
        "long": -89.381212
    },
    {
        "fip": "17079",
        "state": "IL",
        "name": "Jasper County",
        "lat": 39.004874,
        "long": -88.150763
    },
    {
        "fip": "17081",
        "state": "IL",
        "name": "Jefferson County",
        "lat": 38.30078,
        "long": -88.92421
    },
    {
        "fip": "17083",
        "state": "IL",
        "name": "Jersey County",
        "lat": 39.080195,
        "long": -90.361385
    },
    {
        "fip": "17085",
        "state": "IL",
        "name": "Jo Daviess County",
        "lat": 42.362391,
        "long": -90.21147
    },
    {
        "fip": "17087",
        "state": "IL",
        "name": "Johnson County",
        "lat": 37.460709,
        "long": -88.882131
    },
    {
        "fip": "17089",
        "state": "IL",
        "name": "Kane County",
        "lat": 41.939594,
        "long": -88.42804
    },
    {
        "fip": "17091",
        "state": "IL",
        "name": "Kankakee County",
        "lat": 41.13951,
        "long": -87.861117
    },
    {
        "fip": "17093",
        "state": "IL",
        "name": "Kendall County",
        "lat": 41.58814,
        "long": -88.430626
    },
    {
        "fip": "17095",
        "state": "IL",
        "name": "Knox County",
        "lat": 40.930945,
        "long": -90.213792
    },
    {
        "fip": "17097",
        "state": "IL",
        "name": "Lake County",
        "lat": 42.326441,
        "long": -87.435976
    },
    {
        "fip": "17099",
        "state": "IL",
        "name": "LaSalle County",
        "lat": 41.343341,
        "long": -88.885931
    },
    {
        "fip": "17101",
        "state": "IL",
        "name": "Lawrence County",
        "lat": 38.718954,
        "long": -87.730221
    },
    {
        "fip": "17103",
        "state": "IL",
        "name": "Lee County",
        "lat": 41.747447,
        "long": -89.299362
    },
    {
        "fip": "17105",
        "state": "IL",
        "name": "Livingston County",
        "lat": 40.894376,
        "long": -88.552852
    },
    {
        "fip": "17107",
        "state": "IL",
        "name": "Logan County",
        "lat": 40.129277,
        "long": -89.365309
    },
    {
        "fip": "17109",
        "state": "IL",
        "name": "McDonough County",
        "lat": 40.455808,
        "long": -90.678954
    },
    {
        "fip": "17111",
        "state": "IL",
        "name": "McHenry County",
        "lat": 42.324298,
        "long": -88.452245
    },
    {
        "fip": "17113",
        "state": "IL",
        "name": "McLean County",
        "lat": 40.494559,
        "long": -88.844539
    },
    {
        "fip": "17115",
        "state": "IL",
        "name": "Macon County",
        "lat": 39.860237,
        "long": -88.961529
    },
    {
        "fip": "17117",
        "state": "IL",
        "name": "Macoupin County",
        "lat": 39.265914,
        "long": -89.92633
    },
    {
        "fip": "17119",
        "state": "IL",
        "name": "Madison County",
        "lat": 38.82712,
        "long": -89.900227
    },
    {
        "fip": "17121",
        "state": "IL",
        "name": "Marion County",
        "lat": 38.648236,
        "long": -88.920362
    },
    {
        "fip": "17123",
        "state": "IL",
        "name": "Marshall County",
        "lat": 41.031119,
        "long": -89.342371
    },
    {
        "fip": "17125",
        "state": "IL",
        "name": "Mason County",
        "lat": 40.236993,
        "long": -89.913575
    },
    {
        "fip": "17127",
        "state": "IL",
        "name": "Massac County",
        "lat": 37.216119,
        "long": -88.705658
    },
    {
        "fip": "17129",
        "state": "IL",
        "name": "Menard County",
        "lat": 40.022569,
        "long": -89.794133
    },
    {
        "fip": "17131",
        "state": "IL",
        "name": "Mercer County",
        "lat": 41.205605,
        "long": -90.74177
    },
    {
        "fip": "17133",
        "state": "IL",
        "name": "Monroe County",
        "lat": 38.277983,
        "long": -90.179078
    },
    {
        "fip": "17135",
        "state": "IL",
        "name": "Montgomery County",
        "lat": 39.228068,
        "long": -89.478141
    },
    {
        "fip": "17137",
        "state": "IL",
        "name": "Morgan County",
        "lat": 39.717668,
        "long": -90.205005
    },
    {
        "fip": "17139",
        "state": "IL",
        "name": "Moultrie County",
        "lat": 39.636896,
        "long": -88.625726
    },
    {
        "fip": "17141",
        "state": "IL",
        "name": "Ogle County",
        "lat": 42.041884,
        "long": -89.320176
    },
    {
        "fip": "17143",
        "state": "IL",
        "name": "Peoria County",
        "lat": 40.785972,
        "long": -89.766993
    },
    {
        "fip": "17145",
        "state": "IL",
        "name": "Perry County",
        "lat": 38.084381,
        "long": -89.368525
    },
    {
        "fip": "17147",
        "state": "IL",
        "name": "Piatt County",
        "lat": 40.009033,
        "long": -88.592355
    },
    {
        "fip": "17149",
        "state": "IL",
        "name": "Pike County",
        "lat": 39.625106,
        "long": -90.889034
    },
    {
        "fip": "17151",
        "state": "IL",
        "name": "Pope County",
        "lat": 37.417169,
        "long": -88.542374
    },
    {
        "fip": "17153",
        "state": "IL",
        "name": "Pulaski County",
        "lat": 37.215615,
        "long": -89.127755
    },
    {
        "fip": "17155",
        "state": "IL",
        "name": "Putnam County",
        "lat": 41.198961,
        "long": -89.298347
    },
    {
        "fip": "17157",
        "state": "IL",
        "name": "Randolph County",
        "lat": 38.056515,
        "long": -89.82121
    },
    {
        "fip": "17159",
        "state": "IL",
        "name": "Richland County",
        "lat": 38.712187,
        "long": -88.085452
    },
    {
        "fip": "17161",
        "state": "IL",
        "name": "Rock Island County",
        "lat": 41.468421,
        "long": -90.572125
    },
    {
        "fip": "17163",
        "state": "IL",
        "name": "St. Clair County",
        "lat": 38.470198,
        "long": -89.928546
    },
    {
        "fip": "17165",
        "state": "IL",
        "name": "Saline County",
        "lat": 37.751508,
        "long": -88.545024
    },
    {
        "fip": "17167",
        "state": "IL",
        "name": "Sangamon County",
        "lat": 39.756867,
        "long": -89.662425
    },
    {
        "fip": "17169",
        "state": "IL",
        "name": "Schuyler County",
        "lat": 40.156905,
        "long": -90.613464
    },
    {
        "fip": "17171",
        "state": "IL",
        "name": "Scott County",
        "lat": 39.637002,
        "long": -90.477771
    },